<?xml version="1.0" standalone="yes"?>
<records>
	<record>
		<stopCode>71</stopCode>
		<stopName>Facultad de Medicina</stopName>
		<shapePtLat>38.886430</shapePtLat>
		<shapePtLon>-7.000465</shapePtLon>
		<sentido>1</sentido>
		<lineas>3,9,18,C1</lineas>
	</record>
	<record>
		<stopCode>72</stopCode>
		<stopName>Av. de La Medicina</stopName>
		<shapePtLat>38.885105</shapePtLat>
		<shapePtLon>-6.999768</shapePtLon>
		<sentido>1</sentido>
		<lineas>C1</lineas>
	</record>
	<record>
		<stopCode>73</stopCode>
		<stopName>Av. de La Medicina 3</stopName>
		<shapePtLat>38.882870</shapePtLat>
		<shapePtLon>-7.000431</shapePtLon>
		<sentido>1</sentido>
		<lineas>C1</lineas>
	</record>
	<record>
		<stopCode>114</stopCode>
		<stopName>Av. Sinforiano Madroñero  7</stopName>
		<shapePtLat>38.870580</shapePtLat>
		<shapePtLon>-6.989023</shapePtLon>
		<sentido>1</sentido>
		<lineas>5,7,9,C1,5N,6N,7N,18N,9N</lineas>
	</record>
	<record>
		<stopCode>115</stopCode>
		<stopName>Av. Sinforiano Madroñero  21</stopName>
		<shapePtLat>38.868160</shapePtLat>
		<shapePtLon>-6.987424</shapePtLon>
		<sentido>1</sentido>
		<lineas>5,C1,12,5N,6N</lineas>
	</record>
	<record>
		<stopCode>116</stopCode>
		<stopName>Av. Sinforiano Madroñero  5</stopName>
		<shapePtLat>38.865675</shapePtLat>
		<shapePtLon>-6.984004</shapePtLon>
		<sentido>1</sentido>
		<lineas>C1,12,M1,6N</lineas>
	</record>
	<record>
		<stopCode>117</stopCode>
		<stopName>Av. María Auxiliadora  45</stopName>
		<shapePtLat>38.867911</shapePtLat>
		<shapePtLon>-6.980555</shapePtLon>
		<sentido>1</sentido>
		<lineas>C1,M3</lineas>
	</record>
	<record>
		<stopCode>118</stopCode>
		<stopName>Calle Vicente Delgado Algaba  100</stopName>
		<shapePtLat>38.865942</shapePtLat>
		<shapePtLon>-6.975085</shapePtLon>
		<sentido>1</sentido>
		<lineas>C1,S1</lineas>
	</record>
	<record>
		<stopCode>153</stopCode>
		<stopName>Av. Damián Téllez Lafuente  30</stopName>
		<shapePtLat>38.864525</shapePtLat>
		<shapePtLon>-6.972846</shapePtLon>
		<sentido>1</sentido>
		<lineas>3,6,9,C1,S1,M1,CM</lineas>
	</record>
	<record>
		<stopCode>141</stopCode>
		<stopName>Av. Vicente Marcelo Nessi  36</stopName>
		<shapePtLat>38.862032</shapePtLat>
		<shapePtLon>-6.969163</shapePtLon>
		<sentido>1</sentido>
		<lineas>3,4,C1,S1</lineas>
	</record>
	<record>
		<stopCode>218</stopCode>
		<stopName>Av. Vicente Marcelo Nessi  52</stopName>
		<shapePtLat>38.864003</shapePtLat>
		<shapePtLon>-6.962420</shapePtLon>
		<sentido>1</sentido>
		<lineas>4,C1,S1</lineas>
	</record>
	<record>
		<stopCode>219</stopCode>
		<stopName>Av. Luis de Góngora  8</stopName>
		<shapePtLat>38.866498</shapePtLat>
		<shapePtLon>-6.961165</shapePtLon>
		<sentido>1</sentido>
		<lineas>4,C1,S1,5N</lineas>
	</record>
	<record>
		<stopCode>220</stopCode>
		<stopName>Av. Luis de Góngora  6</stopName>
		<shapePtLat>38.867459</shapePtLat>
		<shapePtLon>-6.958621</shapePtLon>
		<sentido>1</sentido>
		<lineas>4,C1,S1,5N</lineas>
	</record>
	<record>
		<stopCode>189</stopCode>
		<stopName>Av. Antonio Hernández Gil  22</stopName>
		<shapePtLat>38.870794</shapePtLat>
		<shapePtLon>-6.955589</shapePtLon>
		<sentido>1</sentido>
		<lineas>5,C1</lineas>
	</record>
	<record>
		<stopCode>187</stopCode>
		<stopName>Luis Andreu Fernandez de Molina</stopName>
		<shapePtLat>38.870585</shapePtLat>
		<shapePtLon>-6.953518</shapePtLon>
		<sentido>2</sentido>
		<lineas>C1</lineas>
	</record>
	<record>
		<stopCode>184</stopCode>
		<stopName>Corte de Peleas 155</stopName>
		<shapePtLat>38.873807</shapePtLat>
		<shapePtLon>-6.950019</shapePtLon>
		<sentido>2</sentido>
		<lineas>7,C1,M4</lineas>
	</record>
	<record>
		<stopCode>185</stopCode>
		<stopName>Corte de Peleas  136-138</stopName>
		<shapePtLat>38.874873</shapePtLat>
		<shapePtLon>-6.953143</shapePtLon>
		<sentido>2</sentido>
		<lineas>7,C1,M4</lineas>
	</record>
	<record>
		<stopCode>1749</stopCode>
		<stopName>Calle Corte de Peleas  84</stopName>
		<shapePtLat>38.875801</shapePtLat>
		<shapePtLon>-6.955857</shapePtLon>
		<sentido>2</sentido>
		<lineas>7,C1,M3,M4</lineas>
	</record>
	<record>
		<stopCode>196</stopCode>
		<stopName>Calle Isidro Pacense  11</stopName>
		<shapePtLat>38.877340</shapePtLat>
		<shapePtLon>-6.955676</shapePtLon>
		<sentido>2</sentido>
		<lineas>4,C1</lineas>
	</record>
	<record>
		<stopCode>176</stopCode>
		<stopName>Av. Ricardo Carapeto Zambrano  67</stopName>
		<shapePtLat>38.878947</shapePtLat>
		<shapePtLon>-6.956224</shapePtLon>
		<sentido>2</sentido>
		<lineas>4,18,C1,21,12,7N,18N</lineas>
	</record>
	<record>
		<stopCode>177</stopCode>
		<stopName>Av. Ricardo Carapeto Zambrano  35</stopName>
		<shapePtLat>38.879199</shapePtLat>
		<shapePtLon>-6.958875</shapePtLon>
		<sentido>2</sentido>
		<lineas>4,18,C1,21,12,7N,18N</lineas>
	</record>
	<record>
		<stopCode>178</stopCode>
		<stopName>Av. Ricardo Carapeto Zambrano  9</stopName>
		<shapePtLat>38.879160</shapePtLat>
		<shapePtLon>-6.961473</shapePtLon>
		<sentido>2</sentido>
		<lineas>4,18,C1,21,12,7N,18N</lineas>
	</record>
	<record>
		<stopCode>179</stopCode>
		<stopName>Calle Alfonso XIII  70</stopName>
		<shapePtLat>38.881905</shapePtLat>
		<shapePtLon>-6.961479</shapePtLon>
		<sentido>2</sentido>
		<lineas>C1</lineas>
	</record>
	<record>
		<stopCode>239</stopCode>
		<stopName>Calle Suárez de Figueroa  18</stopName>
		<shapePtLat>38.883830</shapePtLat>
		<shapePtLon>-6.971522</shapePtLon>
		<sentido>2</sentido>
		<lineas>C1</lineas>
	</record>
	<record>
		<stopCode>1748</stopCode>
		<stopName>Avenida de Adolfo Suárez</stopName>
		<shapePtLat>38.885997</shapePtLat>
		<shapePtLon>-6.974531</shapePtLon>
		<sentido>2</sentido>
		<lineas>6,C1,11,13</lineas>
	</record>
	<record>
		<stopCode>20</stopCode>
		<stopName>Camino Sta. Engracia  8</stopName>
		<shapePtLat>38.891495</shapePtLat>
		<shapePtLon>-6.972089</shapePtLon>
		<sentido>2</sentido>
		<lineas>6,C1</lineas>
	</record>
	<record>
		<stopCode>12</stopCode>
		<stopName>Calle Gurugú  257</stopName>
		<shapePtLat>38.895912</shapePtLat>
		<shapePtLon>-6.974790</shapePtLon>
		<sentido>2</sentido>
		<lineas>6,C1</lineas>
	</record>
	<record>
		<stopCode>1760</stopCode>
		<stopName>Calle Gurugú  145</stopName>
		<shapePtLat>38.895751</shapePtLat>
		<shapePtLon>-6.978427</shapePtLon>
		<sentido>2</sentido>
		<lineas>6,C1</lineas>
	</record>
	<record>
		<stopCode>21</stopCode>
		<stopName>Av. Padre Tacoronte  51</stopName>
		<shapePtLat>38.892916</shapePtLat>
		<shapePtLon>-6.981201</shapePtLon>
		<sentido>2</sentido>
		<lineas>2,6,C1,21,M1</lineas>
	</record>
	<record>
		<stopCode>22</stopCode>
		<stopName>Av. Padre Tacoronte  35</stopName>
		<shapePtLat>38.891783</shapePtLat>
		<shapePtLon>-6.979212</shapePtLon>
		<sentido>2</sentido>
		<lineas>2,6,C1,21,M1</lineas>
	</record>
	<record>
		<stopCode>23</stopCode>
		<stopName>Av. Padre Tacoronte  5</stopName>
		<shapePtLat>38.890109</shapePtLat>
		<shapePtLon>-6.976438</shapePtLon>
		<sentido>2</sentido>
		<lineas>2,6,C1,21,M1</lineas>
	</record>
	<record>
		<stopCode>24</stopCode>
		<stopName>Cardenal Cisneros  21</stopName>
		<shapePtLat>38.887659</shapePtLat>
		<shapePtLon>-6.978175</shapePtLon>
		<sentido>2</sentido>
		<lineas>2,6,C1,21,M1</lineas>
	</record>
	<record>
		<stopCode>25</stopCode>
		<stopName>Argüello Carvajal Teologo Siglo XVII  28</stopName>
		<shapePtLat>38.888690</shapePtLat>
		<shapePtLon>-6.979542</shapePtLon>
		<sentido>2</sentido>
		<lineas>2,C1,21,M1</lineas>
	</record>
	<record>
		<stopCode>26</stopCode>
		<stopName>Av. Carolina Coronado EST. FF.CC.</stopName>
		<shapePtLat>38.890253</shapePtLat>
		<shapePtLon>-6.982364</shapePtLon>
		<sentido>2</sentido>
		<lineas>2,18,C1,21,6N</lineas>
	</record>
	<record>
		<stopCode>28</stopCode>
		<stopName>Calle Valladolid  4</stopName>
		<shapePtLat>38.888177</shapePtLat>
		<shapePtLon>-6.983162</shapePtLon>
		<sentido>2</sentido>
		<lineas>18,C1</lineas>
	</record>
	<record>
		<stopCode>43</stopCode>
		<stopName>Av. Augusto Vázquez  24</stopName>
		<shapePtLat>38.888123</shapePtLat>
		<shapePtLon>-6.985626</shapePtLon>
		<sentido>2</sentido>
		<lineas>C1,M1</lineas>
	</record>
	<record>
		<stopCode>30</stopCode>
		<stopName>Pedro de Alvarado</stopName>
		<shapePtLat>38.888345</shapePtLat>
		<shapePtLon>-6.987781</shapePtLon>
		<sentido>2</sentido>
		<lineas>C1</lineas>
	</record>
	<record>
		<stopCode>31</stopCode>
		<stopName>Av. Miguel de Fabra  19</stopName>
		<shapePtLat>38.889904</shapePtLat>
		<shapePtLon>-6.990339</shapePtLon>
		<sentido>2</sentido>
		<lineas>C1</lineas>
	</record>
	<record>
		<stopCode>32</stopCode>
		<stopName>Av. Castillo Puebla de Alcocer  6</stopName>
		<shapePtLat>38.888281</shapePtLat>
		<shapePtLon>-6.992568</shapePtLon>
		<sentido>2</sentido>
		<lineas>C1</lineas>
	</record>
	<record>
		<stopCode>33</stopCode>
		<stopName>Av. Castillo Puebla de Alcocer  63</stopName>
		<shapePtLat>38.887953</shapePtLat>
		<shapePtLon>-6.996366</shapePtLon>
		<sentido>2</sentido>
		<lineas>C1</lineas>
	</record>
	<record>
		<stopCode>1757</stopCode>
		<stopName>Av. Castillo Puebla de Alcocer  18</stopName>
		<shapePtLat>38.887964</shapePtLat>
		<shapePtLon>-6.998109</shapePtLon>
		<sentido>2</sentido>
		<lineas>C1</lineas>
	</record>
	<record>
		<stopCode>34</stopCode>
		<stopName>Av. del Parque Cientifico Y Tecnológico</stopName>
		<shapePtLat>38.887858</shapePtLat>
		<shapePtLon>-6.999824</shapePtLon>
		<sentido>2</sentido>
		<lineas>C1</lineas>
	</record>
</records>